<?xml version="1.0" encoding="utf-8"?>
<resources>
<string name="canteen1_Lat">31.0218991039    </string>
<string name="canteen1_Lon">121.431589723   </string>

<string name="canteen2_Lat">31.024483   </string>
<string name="canteen2_Lon">121.437034   </string>

<string name="canteen3_Lat">31.026848    </string>
<string name="canteen3_Lon">121.433247   </string>

<string name="canteen4_Lat">31.0252526639    </string>
<string name="canteen4_Lon">121.427293407   </string>


<string name="canteen5_Lat">31.0235811301    </string>
<string name="canteen5_Lon">121.441310464   </string>

<string name="canteen6_Lat">31.0292790454   </string>
<string name="canteen6_Lon">121.444620503   </string>

<string name="canteen7_Lat">31.0293375655    </string>
<string name="canteen7_Lon">121.441385204   </string>

<string name="canteenHaLe_Lat">31.0209011803    </string>
<string name="canteenHaLe_Lon">121.432329581   </string>

<string name="canteenYuLan_Lat">31.0234444189    </string>
<string name="canteenYuLan_Lon">121.431225994   </string>
</resources>